id,stationId,stationName,latitude,longitude,measurementDate,measuredFlow,measuredLevel,forecastedFlow,forecastedLevel,forecastedPeakDate,floodStage,bankFullCapacityFlow,bankFullCapacityLevel,warningTriggerLevel,highWaterAdvisoryLevel,referenceYears,alert,wscRealTimeData,dateRecorded,waterLevel,discharge,datumAdjustment,remarks,source,province,other,averagingPeriod,overwriteAlert,updated
"40","05JM001","Qu'Appelle River near Welby ","50.49128","-101.55856","2025-02-13 11:55:00","79.75","5.37","","","","","3500","","","","","No Current Data","https://wateroffice.ec.gc.ca/report/real_time_e.html?stn=05JM001","2025-02-13 11:55:00","1.64","2.24","","","WSC","SK","","24.0000000000000","Yes","true"
"41","05JM015","Cutarm Creek near Spy Hill","50.59027778","-101.7427778","2025-02-13 09:10:00","3.59","4.14","","","","","1060","11.7","","10.7","","No Current Data","https://wateroffice.ec.gc.ca/report/real_time_e.html?stn=05JM015","2025-02-13 09:10:00","1.26","0.11","","","WSC","SK","","24.0000000000000","Yes","true"
"42","05KH007","Carrot River near Turnberry","53.61467096","-102.1039184","2025-02-13 11:15:00","260.52","857.78","","","","","","875","","874","","No Current Data","https://wateroffice.ec.gc.ca/report/real_time_e.html?stn=05KH007","2025-02-13 11:15:00","261.45","7.31","","","WSC","SK","","24.0000000000000","Yes","true"
"43","05KH015","Carrot River near the Pas","53.80583333","-101.3747222","2025-02-03 07:30:00","","845.54","","","","","","857","","856","","No Current Data","https://wateroffice.ec.gc.ca/report/real_time_e.html?stn=05KH015","2025-02-03 07:30:00","257.72","","","","WSC","MB","","24.0000000000000","No",""
"44","05KJ001","Saskatchewan River at The Pas","53.83956496","-101.2034277","2025-02-13 12:10:00","14384.88","844.86","","","","","","855","","854","","No Flooding","https://wateroffice.ec.gc.ca/report/real_time_e.html?stn=05KJ001","2025-02-13 12:10:00","257.52","410","","","WSC","MB","","24.0000000000000","No","true"
"45","05KK002","Cormorant Lake at Cormorant","54.22555556","-100.6047222","2025-02-13 11:35:00","","840.33","","","","","","845","","844","","No Flooding","https://wateroffice.ec.gc.ca/report/real_time_e.html?stn=05KK002","2025-02-13 11:35:00","256.14","","","","WSC","MB","","24.0000000000000","No","true"
"46","05KL005","Cedar Lake near Oleson Point","53.31944444","-100.2791667","2025-02-11 09:00:00","","838.55","","","","","","842","","841","","No Flooding","","","","","","","MI","","","1.00000000000000","Yes",""
"47","05LC001","Red Deer River near Erwood","52.85944444","-102.195","2025-02-13 11:35:00","95.56","4.17","","","","","","13.5","","12.5","","No Current data","https://wateroffice.ec.gc.ca/report/real_time_e.html?stn=05LC001","2025-02-13 11:35:00","1.47","9.7","","","WSC","SK","","24.0000000000000","Yes","true"
"48","05LC004","Red Deer River near the Mouth","52.87611111","-101.0491667","2025-02-03 07:27:00","1066.82","832.82","","","","","5300","837.7","","836.7","","No Current Data","https://wateroffice.ec.gc.ca/report/real_time_e.html?stn=05LC004","2025-02-03 07:27:00","253.84","30.2","","","WSC","MB","","24.0000000000000","No",""
"49","05LD001","Overflowing River at Overflowing River","53.14277778","-101.1025","2025-02-03 07:15:00","184.72","832.96","","","","","","837.4","","836.4","","No Current Data","https://wateroffice.ec.gc.ca/report/real_time_e.html?stn=05LD001","2025-02-03 07:15:00","253.89","5.23","","","WSC","MB","","24.0000000000000","No",""
"50","05LE001","Swan River at Swan River","52.12055556","-101.2516667","2024-11-01 06:05:00","","14.94","","","","","","22.1","","21.1","","No Current Data","https://wateroffice.ec.gc.ca/report/real_time_e.html?stn=05LE001","2024-11-01 06:05:00","4.55","","","","WSC","MB","","24.0000000000000","No",""
"51","05LE004","Woody River near Bowsman","52.25944444","-101.1413889","2024-11-01 06:45:00","0.99","977.28","","","","","","989","","988","","No Current Data","https://wateroffice.ec.gc.ca/report/real_time_e.html?stn=05LE004","2024-11-01 06:45:00","297.87","0.03","","","WSC","MB","","24.0000000000000","No",""
"52","05LE005","Roaring River near Minitonas","52.15083333","-101.06","2024-11-01 06:10:00","13.95","934.4","","","","","","943.8","","942.8","","No Current Data","https://wateroffice.ec.gc.ca/report/real_time_e.html?stn=05LE005","2024-11-01 06:10:00","284.81","0.4","","","WSC","MB","","24.0000000000000","No",""
"53","05LE006","Swan River near Minitonas","52.19583333","-101.0605556","2024-11-01 05:26:00","25.45","901.09","","","","","","913","","912","","No Current Data","https://wateroffice.ec.gc.ca/report/real_time_e.html?stn=05LE006","2024-11-01 05:26:00","274.65","0.72","","","WSC","MB","","24.0000000000000","No",""
"54","05LE010","Birch River near Birch River","52.37","-101.0863889","2024-11-01 06:10:00","6.73","971.07","","","","","","978.8","","977.8","","No Current Data","https://wateroffice.ec.gc.ca/report/real_time_e.html?stn=05LE010","2024-11-01 06:10:00","295.98","0.19","","","WSC","MB","","24.0000000000000","No",""
"55","05LG003","Garland River near Garland","51.66722222","-100.4894444","2024-11-01 06:05:00","3.78","24.64","","","","","420","29.5","","28.5","","No Current Data","https://wateroffice.ec.gc.ca/report/real_time_e.html?stn=05LG003","2024-11-01 06:05:00","7.51","0.11","","","WSC","MB","","24.0000000000000","No",""
"56","05LG004","North Duck River at Cowan","52.03111111","-100.65","2024-11-01 05:25:00","7.48","1168.86","","","","","","1173.8","","1172.8","","No Current Data","https://wateroffice.ec.gc.ca/report/real_time_e.html?stn=05LG004","2024-11-01 05:25:00","356.27","0.21","","","WSC","MB","","24.0000000000000","No",""
"57","05LH001","Lake Winnipegosis at Winnipegosis","51.64699612","-99.92334921","2025-02-13 11:20:00","","830.71","","","","","420","835","835","","","No Flooding","https://wateroffice.ec.gc.ca/report/real_time_e.html?stn=05LH001","2025-02-13 11:20:00","253.21","","","Long Tern Mean : 831.0 ft","WSC","MB","","24.0000000000000","No","true"
"58","05LH005","Waterhen River near Waterhen","51.84914579","-99.54616709","2025-02-13 11:20:00","159.39","819.14","","","","","12000","","","","","No Flooding","https://wateroffice.ec.gc.ca/report/real_time_e.html?stn=05LH005","2025-02-13 11:20:00","249.67","4.39","","","WSC","MB","","24.0000000000000","No","true"
"59","05LJ005","Ochre River at Ochre River","51.05111111","-99.78833333","2025-02-13 12:05:00","321.05","917.49","","","","","12000","923.9","","922.9","","No Flooding","https://wateroffice.ec.gc.ca/report/real_time_e.html?stn=05LJ005","2025-02-13 12:05:00","280.19","16.1","","","WSC","MB","","24.0000000000000","No","true"
"60","05LJ009","Dauphin Lake at Outlet","51.43999942","-99.95067509","2025-02-13 11:20:00","","854.41","","","","863","","858","","","","No Flooding","https://wateroffice.ec.gc.ca/report/real_time_e.html?stn=05LJ009","2025-02-13 11:20:00","260.42","","","Normal: 853 - 854.8 ft","WSC","MB","","24.0000000000000","No","true"
"61","05LJ010","Valley River near Dauphin","51.281944","-100.015833","2024-11-01 05:35:00","34.01","875.14","","","","","","886.6","","885.6","","No Current Data","https://wateroffice.ec.gc.ca/report/real_time_e.html?stn=05LJ010","2024-11-01 05:35:00","266.74","0.97","","","WSC","MB","","24.0000000000000","No",""
"62","05LJ012","Vermilion River near Dauphin","51.187222","-100.015833","2024-11-01 05:45:00","19.63","906.93","","","","","","918.4","","917.4","","No Current Data","https://wateroffice.ec.gc.ca/report/real_time_e.html?stn=05LJ012","2024-11-01 05:45:00","276.43","0.56","","","WSC","MB","","24.0000000000000","No",""
"63","05LJ019","Mink Creek near Ethelbert","51.41388889","-100.3541667","2024-11-01 05:25:00","1.42","1107.36","","","","","1600","1112.2","","1111.2","","No Current Data","https://wateroffice.ec.gc.ca/report/real_time_e.html?stn=05LJ019","2024-11-01 05:25:00","337.52","0.04","","","WSC","MB","","24.0000000000000","No",""
"64","05LJ025","Mossy River below outlet of Dauphin Lk.","51.45027778","-99.97083333","2025-02-13 11:25:00","622.73","853.85","","","","","1490","856.7","","855.7","","No Flooding","https://wateroffice.ec.gc.ca/report/real_time_e.html?stn=05LJ025","2025-02-13 11:25:00","260.25","17.4","","","WSC","MB","","24.0000000000000","No","true"
"65","05LJ045","Wilson River near Ashville","51.15611111","-100.3325","2024-11-01 06:15:00","0.07","1130.29","","","","","","1140.1","","1139.1","","No Current Data","https://wateroffice.ec.gc.ca/report/real_time_e.html?stn=05LJ012","2024-11-01 06:15:00","344.51","","","","WSC","MB","","24.0000000000000","No",""
"66","05LK002","Lake Manitoba at Steep Rock","51.44404832","-98.80315949","2025-02-13 12:10:00","","811.32","","","","","","814","","813","","No Flooding","https://wateroffice.ec.gc.ca/report/real_time_e.html?stn=05LK002","2025-02-13 12:10:00","247.29","","","Normal: 810.5 - 812.5 ft","WSC","MB","","24.0000000000000","No","true"
"67","05LL002","Whitemud River at Westbourne","50.13472222","-98.58388889","2025-02-13 12:15:00","47.44","1.22","","","","","","3.9","","3.5","","No Flooding","https://wateroffice.ec.gc.ca/report/real_time_e.html?stn=05LL002","2025-02-13 12:15:00","0.37","1.28","","","WSC","MB","","24.0000000000000","No","true"
"68","05LL005","Whitemud River near Keyes","50.185278","-99.109722","2024-11-01 07:25:00","14.63","945.72","","","","","","951.9","","950.9","","No Current Data","https://wateroffice.ec.gc.ca/report/real_time_e.html?stn=05LL005","2024-11-01 07:25:00","288.26","0.41","","","WSC","MB","","24.0000000000000","No",""
"69","05LL012","Lake Manitoba near Westbourne","50.25141383","-98.5876098","2025-02-13 11:20:00","","811.38","","","","","","814","","813","","No Flooding","https://wateroffice.ec.gc.ca/report/real_time_e.html?stn=05LL012","2025-02-13 11:20:00","247.31","","","Normal: 810.5-812.5 ft","WSC","MB","","24.0000000000000","No","true"
"70","05LL015","Big Grass River near Glenella","50.505556","-98.970278","2024-11-01 07:35:00","","2.65","","","","","","12.2","","11.2","","No Current Data","https://wateroffice.ec.gc.ca/report/real_time_e.html?stn=05LL015","2024-11-01 07:35:00","0.81","","","","WSC","MB","","6.00000000000000","No",""
"71","05LL019","Portage Diversion near Portage La Prairie","49.96555556","-98.38027778","2025-01-28 15:05:00","","895.5","","","","","25000","12.2","","11.2","","No Current Data","https://wateroffice.ec.gc.ca/report/real_time_e.html?stn=05LL019","2025-01-28 15:05:00","273.02","","","","WSC","MB","","2.00000000000000","No",""
"72","05LM001","Fairford River near Fairford","51.5873583","-98.71177756","2025-02-13 12:05:00","1700.66","805.68","","","","814","","812.5","","","","No Flooding","https://wateroffice.ec.gc.ca/report/real_time_e.html?stn=05LM001","2025-02-13 12:05:00","245.57","47.9","","","WSC","MB","","6.00000000000000","No","true"
"73","05LM005","Lake St. Martin near Hilbre","51.50897007","-98.52881388","2025-02-13 12:05:00","","798.99","","","","805","","801","","800.5","","No Flooding","https://wateroffice.ec.gc.ca/report/real_time_e.html?stn=05LM005","2025-02-13 12:05:00","243.53","","","Normal: 797 - 800 ft","WSC","MB","","6.00000000000000","No","true"
"74","05LM006","Dauphin River near Dauphin River","52.00193954","-98.32976952","2025-02-13 12:07:00","1823.33","13.99","","","","","7600","20","","19","","No Flooding","https://wateroffice.ec.gc.ca/report/real_time_e.html?stn=05LM006","2025-02-13 12:07:00","4.26","51.8","","","WSC","MB","","24.0000000000000","No","true"
"75","05MB003","Whitesand River near Canora","51.63611111","-102.3697222","2025-02-13 11:05:00","6.37","1538.96","","","","","7600","1545","","1544","","No Current Data","https://wateroffice.ec.gc.ca/report/real_time_e.html?stn=05MB003","2025-02-13 11:05:00","469.08","0.18","","","WSC","SK","","6.00000000000000","Yes","true"
"76","05MC001","Assiniboine River at Sturgis","51.93972222","-102.5469444","2025-02-13 11:35:00","7.13","3.66","","","","","2500","10.2","","9.2","","No Current Data","https://wateroffice.ec.gc.ca/report/real_time_e.html?stn=05MC001","2025-02-13 11:35:00","1.11","0.2","","","WSC","SK","","2.00000000000000","Yes","true"
"77","05MD004","Assiniboine River at Kamsack","51.56472222","-101.9163889","2025-02-03 07:10:00","30.09","8.98","","","","","2500","27.2","","26.2","","No Current Data","https://wateroffice.ec.gc.ca/report/real_time_e.html?stn=05MD004","2025-02-03 07:10:00","2.75","0.92","","","WSC","SK","","2.00000000000000","Yes",""
"78","05MD005","Shell River near Inglis","50.96333333","-101.3186111","2025-02-13 11:40:00","47.41","1438.42","","","","","1261","1440.9","","1439.9","","No Flooding","https://wateroffice.ec.gc.ca/report/real_time_e.html?stn=05MD005","2025-02-13 11:40:00","438.45","1.53","","","WSC","MB","","6.00000000000000","No","true"
"79","05MD007","Shell River near Roblin","51.36166667","-101.2561111","2024-11-01 07:20:00","34.12","2.28","","","","","2200","10.3","","9.3","","No Current Data","https://wateroffice.ec.gc.ca/report/real_time_e.html?stn=05MD007","2024-11-01 07:20:00","0.69","0.96","","","WSC","MB","","6.00000000000000","No",""
"80","05MD009","Lake of the Prairies near Shellmouth","50.960371","-101.4124189","2025-02-13 11:22:00","","1393.03","","","","","1261","1408.5","","1407.5","","No Flooding","https://wateroffice.ec.gc.ca/report/real_time_e.html?stn=05MD009","2025-02-13 11:22:00","424.6","","","","WSC","MB","","6.00000000000000","No","true"
"81","05MD010","Stony Creek Near Kamsack","51.38888889","-101.8388889","2025-02-13 11:30:00","","1.55","","","","","420","10.6","","9.6","","No Current Data","https://wateroffice.ec.gc.ca/report/real_time_e.html?stn=05MD010","2025-02-13 11:30:00","0.47","","","","WSC","SK","","6.00000000000000","Yes","true"
"200","05MD012","Lake of the Prairies Near Togo","51.29611111111111","-101.59083333333332","2024-11-01 07:10:00","","1399.58","","","","","","1408.5","","1407.5","","No Current Data","https://wateroffice.ec.gc.ca/report/real_time_e.html?stn=05MD012","2024-11-01 07:10:00","92.95","","333.644000000000","","WSC","SK","","6.00000000000000","No",""
"83","05ME001","Assiniboine River near Russell","50.80972222","-101.4358333","2025-02-13 11:32:00","724.46","1341.43","","","","","3000","1343.2","","1342.2","","No Flooding","https://wateroffice.ec.gc.ca/report/real_time_e.html?stn=05ME001","2025-02-13 11:32:00","408.87","20.5","","Gauge issue","WSC","MB","","2.00000000000000","No","true"
"84","05ME003","Birdtail Creek near Birtle","50.53472222","-100.9522222","2024-11-01 07:20:00","16.44","1588.67","","","","","1413","1595.3","","1594.3","","No Current Data","https://wateroffice.ec.gc.ca/report/real_time_e.html?stn=05ME003","2024-11-01 07:20:00","484.23","0.47","","","WSC","MB","","6.00000000000000","No",""
"85","05ME005","Conjuring Creek near Russell","50.795","-101.299167","2024-11-01 08:05:00","","1812.77","","","","","","1815.8","","","","No Current Data","https://wateroffice.ec.gc.ca/report/real_time_e.html?stn=05ME005","2024-11-01 08:05:00","552.53","","","","WSC","MB","","6.00000000000000","No",""
"86","05ME006","Assiniboine River near Miniota","50.1103072","-101.0363974","2024-11-01 08:15:00","589.75","1225.61","","","","","5250","1236.8","","1235.8","","No Current Data","https://wateroffice.ec.gc.ca/report/real_time_e.html?stn=05ME006","2024-11-01 08:15:00","373.56","16.7","","","WSC","MB","","2.00000000000000","No",""
"87","05ME007","Smith Creek near Marchwell","50.83277778","-101.5786111","2025-02-13 08:35:00","","","","","","","3000","10","","9","","No Flooding","https://wateroffice.ec.gc.ca/report/real_time_e.html?stn=05ME007","2025-02-13 08:35:00","","","","","WSC","SK","","6.00000000000000","No","true"
"88","05ME009","Scissor Creek near Mcauley","50.26944444","-101.3841667","2024-11-01 07:20:00","","2.85","","","","","","5.1","","9","","No Current Data","https://wateroffice.ec.gc.ca/report/real_time_e.html?stn=05ME009","2024-11-01 07:20:00","0.87","","","","WSC","MB","","2.00000000000000","No",""
"89","05ME010","Silver Creek near Binscarth","50.62277778","-101.2563889","2024-11-01 07:25:00","1.45","4.49","","","","","","11","","10","","No Current Data","https://wateroffice.ec.gc.ca/report/real_time_e.html?stn=05ME010","2024-11-01 07:25:00","1.37","0.04","","","WSC","MB","","6.00000000000000","No",""
"90","05ME011","Assiniboine River Southwest of St. Lazare","50.44222","-101.31861","2025-02-13 12:10:00","","1275.79","","","","1293.41","4400","1282.5","","9","","High Water Advisory/Flood Watch","https://wateroffice.ec.gc.ca/report/real_time_e.html?stn=05ME011","2025-02-13 12:10:00","388.86","","","","WSC","MB","","2.00000000000000","No","true"
"91","05MF001","Little Saskatchewan River near Minnedosa","50.35861111","-99.9075","2025-02-13 12:05:00","65.31","1714.61","","","","","3000","1719.2","","1718.2","","No Flooding","https://wateroffice.ec.gc.ca/report/real_time_e.html?stn=05MF001","2025-02-13 12:05:00","522.61","1.83","","","WSC","MB","","6.00000000000000","No","true"
"92","05MF008","Rolling River near Erickson","50.52305556","-99.94611111","2024-11-01 07:15:00","5.63","1990.18","","","","","1165","1998","","1997","","No Current Data","https://wateroffice.ec.gc.ca/report/real_time_e.html?stn=05MF008","2024-11-01 07:15:00","606.61","0.16","","","WSC","MB","","6.00000000000000","No",""
"93","05MF018","Little Saskatchewan River near Rivers","50.02361111","-100.2075","2024-11-01 07:10:00","","1479.93","","","","","1653","1483.9","","1483","","No Current Data","https://wateroffice.ec.gc.ca/report/real_time_e.html?stn=05MF018","2024-11-01 07:10:00","451.08","","","","WSC","MB","","6.00000000000000","No",""
"94","05MF020","Lake Wahtopanah near Rivers (Rivers Reservoir)","50.029444","-100.203333","2025-02-13 12:20:00","","1534.35","","","","","","1540","","1539","","No Flooding","https://wateroffice.ec.gc.ca/report/real_time_e.html?stn=05MF020","2025-02-13 12:20:00","467.67","","","","WSC","MB","","6.00000000000000","No","true"
"95","05MG001","Arrow River near Arrow River","50.09277778","-100.9555556","2024-11-01 08:17:00","0.92","331.12","","","","","706","","","","","No Current Data","https://wateroffice.ec.gc.ca/report/real_time_e.html?stn=05MG001","2024-11-01 08:17:00","100.93","0.03","","","WSC","MB","","6.00000000000000","No",""
"96","05MG003","Gopher Creek near Virden","49.78333333","-100.9663889","2024-11-01 09:25:00","","","","","","","800","","","","","No Current Data","https://wateroffice.ec.gc.ca/report/real_time_e.html?stn=05MG003","2024-11-01 09:25:00","-0.32","","","","WSC","MB","","6.00000000000000","No",""
"97","05MG004","Oak River near Rivers","50.02555556","-100.3941667","2024-11-01 08:20:00","","1.04","","","","","1400","","","","","No Current Data","https://wateroffice.ec.gc.ca/report/real_time_e.html?stn=05MG004","2024-11-01 08:20:00","0.32","","","","WSC","MB","","6.00000000000000","No",""
"98","05MG013","Assiniboine River North of Griswold","49.84306","-100.46278","2025-02-13 12:00:00","","1188.55","","","","","","1196.4","","1195.4","","No Flooding","https://wateroffice.ec.gc.ca/report/real_time_e.html?stn=05MG013","2025-02-13 12:00:00","362.22","","","","WSC","MB","","2.00000000000000","No","true"
"99","05MG014","Assiniboine River East of Virden","49.87528","-100.84889","2025-02-13 12:10:00","","1204.46","","","","","","1216","","1215","","No Flooding","https://wateroffice.ec.gc.ca/report/real_time_e.html?stn=05MG014","2025-02-13 12:10:00","367.12","","","","WSC","MB","","2.00000000000000","No","true"
"100","05MG015","Baileys Creek near Oak Lk.","49.86055556","-100.6675","2024-11-01 08:10:00","0.07","337.59","","","","","113","341","","340","","No Current Data","https://wateroffice.ec.gc.ca/report/real_time_e.html?stn=05MG015","2024-11-01 08:10:00","102.9","","","","WSC","MB","","6.00000000000000","No",""
"101","05MH001","Assiniboine River at Brandon - 18th Street (WSC)","49.86138889","-99.96138889","2025-02-13 12:05:00","1148.27","1169.98","","","","1188.25","","1175.2","","1174.2","","No Flooding","https://wateroffice.ec.gc.ca/report/real_time_e.html?stn=05MH001","2025-02-13 12:05:00","356.61","32.5","","","WSC","MB","","2.00000000000000","No","true"
"102","05MH005","Assiniboine River near Holland","49.69858738","-98.88955142","2025-02-13 11:20:00","1290.45","963.09","","","","1188.25","26000","974.2","","973.2","","No Flooding","https://wateroffice.ec.gc.ca/report/real_time_e.html?stn=05MH005","2025-02-13 11:20:00","293.55","36.7","","","WSC","MB","","24.0000000000000","No","true"
"103","05MH006","Little Souris River near Brandon","49.73194444","-99.84861111","2024-11-01 07:22:00","","5.24","","","","","780","12.5","","11.5","","No Current Data","https://wateroffice.ec.gc.ca/report/real_time_e.html?stn=05MH006","2024-11-01 07:22:00","1.6","","","","WSC","MB","","2.00000000000000","No",""
"104","05MH007","Epinette Creek near Carberry","49.74166667","-99.325","2024-11-01 07:15:00","2.05","1.96","","","","","175","4.9","","3.9","","No Current Data","https://wateroffice.ec.gc.ca/report/real_time_e.html?stn=05MH007","2024-11-01 07:15:00","0.6","0.06","","","WSC","MB","","6.00000000000000","No",""
"105","05MH008","Cypress River near Bruxelles","49.44638889","-98.90777778","2024-11-01 07:40:00","","328.3","","","","","1600","10","","9","","No Current Data","https://wateroffice.ec.gc.ca/report/real_time_e.html?stn=05MH008","2024-11-01 07:40:00","100.07","","","","WSC","MB","","6.00000000000000","No",""
"106","05MJ001","Assiniboine River at Headingley","49.86839056","-97.40555047","2025-02-13 12:00:00","1069.74","759.7","","","","","30000","772.5","","771.5","","No Flooding","https://wateroffice.ec.gc.ca/report/real_time_e.html?stn=05MJ001","2025-02-13 12:00:00","231.56","30.3","","","WSC","MB","","2.00000000000000","No","true"
"107","05MJ003","Assiniboine River near Portage La Prairie (Bascule Gates)","49.93508785","-98.2799695","2024-11-01 06:20:00","810.47","834.38","","","","","","854","","853","","No Current Data","https://wateroffice.ec.gc.ca/report/real_time_e.html?stn=05MJ003","2024-11-01 06:20:00","254.32","23","","","WSC","MB","","2.00000000000000","No",""
"108","05MJ004","Sturgeon Creek at St. James","49.88166667","-97.27972222","2024-11-01 06:20:00","5.05","6.8","","","","","1483","11.7","","","","No Current Data","https://wateroffice.ec.gc.ca/report/real_time_e.html?stn=05MJ004","2024-11-01 06:20:00","2.07","0.14","","","WSC","MB","","6.00000000000000","No",""
"109","05MJ006","Portage Reservoir near Portage La Prairie (Upstream)","49.94416667","-98.33666667","2024-11-01 05:20:00","","862.59","","","","","45000","871.4","","870.4","","No Current Data","https://wateroffice.ec.gc.ca/report/real_time_e.html?stn=05MJ006","2024-11-01 05:20:00","262.92","","","","WSC","MB","","2.00000000000000","No",""
"110","05MJ012","Assiniboine River at Baie St. Paul","50.01206","-97.76083","2024-11-01 06:20:00","","784.75","","","","","18000","800.2","","799.2","","No Current Data","https://wateroffice.ec.gc.ca/report/real_time_e.html?stn=05MJ012","2024-11-01 06:20:00","239.19","","","","WSC","MB","","2.00000000000000","No",""
"111","05MJ013","Omands Creek near Empress St East","49.88416667","-97.19444444","2024-11-01 06:10:00","32.56","13.5","","","","","299","15.1","","14.1","","No Current Data","https://wateroffice.ec.gc.ca/report/real_time_e.html?stn=05MJ013","2024-11-01 06:10:00","4.12","0.92","","","WSC","MB","","6.00000000000000","No",""
"112","05NF001","Souris River at Melita","49.26666421","-100.9770695","2024-11-01 09:15:00","41.08","1397.32","","","","","1801","1403.5","","1402.5","","No Current Data","https://wateroffice.ec.gc.ca/report/real_time_e.html?stn=05NF001","2024-11-01 09:15:00","425.9","1.16","","","WSC","MB","","2.00000000000000","No",""
"113","05NG001","Souris River at Wawanesa","49.59796281","-99.68154967","2025-02-13 08:15:00","105.47","1142.25","","","","1168.5","","1149.9","","","","No Flooding","https://wateroffice.ec.gc.ca/report/real_time_e.html?stn=05NG001","2025-02-13 08:15:00","348.15","2.95","","","WSC","MB","","6.00000000000000","No","true"
"114","05NG003","Pipestone Creek near Pipestone","49.59540684","-100.9434461","2024-11-01 09:25:00","8.51","309.4","","","","","","582","","581","","No Current Data","https://wateroffice.ec.gc.ca/report/real_time_e.html?stn=05NG003","2024-11-01 09:25:00","94.3","0.23","","","WSC","MB","","6.00000000000000","No",""
"116","05NG021","Souris River at Souris","49.61958627","-100.2464465","2024-11-01 09:20:00","46.44","1341.02","","","","1366.8","","1351.7","","","","No Current Data","https://wateroffice.ec.gc.ca/report/real_time_e.html?stn=05NG021","2024-11-01 09:20:00","408.74","1.32","","","WSC","MB","","6.00000000000000","No",""
"117","05NG023","Whitewater Lake near Boissevain","49.2225","-100.2625","2024-11-01 10:07:00","","1629.1","","","","","","1633","","1632","","No Current Data","https://wateroffice.ec.gc.ca/report/real_time_e.html?stn=05NG023","2024-11-01 10:07:00","496.55","","","","WSC","MB","","2.00000000000000","No",""
"201","05OA001","Pembina River north of Killarney ","49.22083333333334","-99.72055555555556","2024-11-01 08:00:00","0.13","1578.34","","","","","","1581.4","","1581","","No Current Data","https://wateroffice.ec.gc.ca/report/real_time_e.html?stn=05OA001","2024-11-01 08:00:00","481.08","","0","","","","","6.00000000000000","No",""
"118","05OA019","Bone Lake Outlet near Ninette (North Gauge)","49.42083333","-99.63694444","2024-11-01 07:25:00","","1351.02","","","","","","1353","","1352","","No Current Data","https://wateroffice.ec.gc.ca/report/real_time_e.html?stn=05OA019","2024-11-01 07:25:00","7.42","","404.370000000000","Operating Range: 1350.00-1351.70ft","WSC","MB","","6.00000000000000","No",""
"119","05OA802","Pelican Lake near Ninette (South Gauge)","49.274166666666666","-99.47222222222223","2025-02-11 09:00:00","","1350.61","","","","","","1353","","1352","","No Flooding","","","","","","Operating Range: 1350.0 - 1351.7ft","MI","","","1.00000000000000","Yes",""
"120","05OB001","Pembina River near La Riviere","49.23206","-98.67939","2024-11-01 07:15:00","11.48","1285.88","","","","","","1294.6","","1293.6","","No Current Data","https://wateroffice.ec.gc.ca/report/real_time_e.html?stn=05OB001","2024-11-01 07:15:00","391.94","0.33","","","WSC","MB","","6.00000000000000","No",""
"121","05OB007","Pembina River near Windygates","49.03053","-98.27203","2025-02-13 12:05:00","","1105.59","","","","","10000","1123.5","","1122.5","2019/2013","No Flooding","https://wateroffice.ec.gc.ca/report/real_time_e.html?stn=05OB007","2025-02-13 12:05:00","336.98","","","","WSC","MB","","24.0000000000000","No","true"
"122","05OB016","Snowflake Creek near Snowflake","49.02028","-98.60333","2025-02-13 11:25:00","28.43","1225.23","","","","","","1229.4","","1228.4","","No Flooding","https://wateroffice.ec.gc.ca/report/real_time_e.html?stn=05OB016","2025-02-13 11:25:00","373.54","1.44","","","WSC","MB","","24.0000000000000","No","true"
"123","05OB021","Mowbray Creek near Mowbray","49.00027778","-98.45361111","2025-02-13 11:25:00","37.88","1529.88","","","","","950","1534.8","","1533.8","","No Flooding","https://wateroffice.ec.gc.ca/report/real_time_e.html?stn=05OB021","2025-02-13 11:25:00","466.4","0.37","","","WSC","MB","","6.00000000000000","No","true"
"124","05OB027","Rock Lake near Glenora","49.2075","-99.13416667","2024-11-01 07:20:00","","1328.94","","","","","","1333","","1332","","No Current Data","https://wateroffice.ec.gc.ca/report/real_time_e.html?stn=05OB027","2024-11-01 07:20:00","405.06","","","Normal: 1328 - 1330 ft","WSC","MB","","2.00000000000000","No",""
"125","05OC001","Red River at Emerson","49.00361111111111","-97.22361111111111","2025-02-13 12:20:00","1055.9","750.23","","","","795.6","","783.2","","782.2","2019/2020","No Flooding","https://wateroffice.ec.gc.ca/report/real_time_e.html?stn=05OC001","2025-02-13 12:20:00","228.2","29.9","0.469000000000000","CGVD28 datum","WSC","MB","","24.0000000000000","No","true"
"126","05OC006","Red River at Morris","49.35519","-97.34906","2025-01-13 10:10:00","","328.51","","","","787.4","","769.4","","768.4","","No Current Data","https://wateroffice.ec.gc.ca/report/real_time_e.html?stn=05OC006","2025-01-13 10:10:00","100.13","","","","WSC","MB","","2.00000000000000","No",""
"127","05OC009","Red River at St. Jean Baptiste","49.265833","-97.340278","2025-01-03 08:16:00","","764.2","","","","788","","771.6","","770.6","","No Current Data","https://wateroffice.ec.gc.ca/report/real_time_e.html?stn=05OC009","2025-01-03 08:16:00","232.93","","","","WSC","MB","","2.00000000000000","No",""
"128","05OC010","Red River near Letellier","49.13172","-97.25325","2024-07-09 06:06:00","","768.01","","","","790.6","","780.1","","779.1","","No Current Data","https://wateroffice.ec.gc.ca/report/real_time_e.html?stn=05OC010","2024-07-09 06:06:00","234.09","","","","WSC","MB","","2.00000000000000","No",""
"129","05OC012","Red River near Ste. Agathe","49.56638888888889","-97.17944444444444","2025-02-13 12:20:00","1164.28","735.1","","","","778.5","75000","771","","","2019/2020","No Flooding","https://wateroffice.ec.gc.ca/report/real_time_e.html?stn=05OC012","2025-02-13 12:20:00","223.69","32.9","0.372000000000000","CGVD28 datum-Flow Adjusted","WSC","MB","","2.00000000000000","No","true"
"130","05OC016","Deadhorse Creek near Rosenfeld","49.25055556","-97.54972222","2024-11-04 08:05:00","9.25","4.29","","","","","","14","","13","","No Current Data","https://wateroffice.ec.gc.ca/report/real_time_e.html?stn=05OC016","2024-11-04 08:05:00","1.31","0.26","","","WSC","MB","","6.00000000000000","No",""
"131","05OC017","Red River Floodway near St. Norbert","49.756667","-97.121389","2024-12-05 10:10:00","","743.73","","","","","140000","","","","","No Current Data","https://wateroffice.ec.gc.ca/report/real_time_e.html?stn=05OC017","2024-12-05 10:10:00","226.69","","","","WSC","MB","","6.00000000000000","No",""
"132","05OC019","Buffalo Creek near Rosenfeld","49.19111111","-97.40333333","2025-02-06 15:05:00","3.5","770.06","","","","","","775.7","","","","No Current Data","https://wateroffice.ec.gc.ca/report/real_time_e.html?stn=05OC019","2025-02-06 15:05:00","234.72","0.1","","","WSC","MB","","2.00000000000000","Yes",""
"133","05OC020","Red River below Floodway Control Structure","49.75416667","-97.13333333","2024-11-12 08:15:00","","737.58","","","","","","752","","751","","No Current Data","https://wateroffice.ec.gc.ca/report/real_time_e.html?stn=05OC020","2024-11-12 08:15:00","224.82","","","set to 2020 level>UQ","WSC","MB","","6.00000000000000","No",""
"134","05OC021","Red River above Floodway Control Structure","49.750556","-97.133333","2024-11-04 06:10:00","","731.55","","","","","","760","","","","No Current Data","https://wateroffice.ec.gc.ca/report/real_time_e.html?stn=05OC021","2024-11-04 06:10:00","222.97","","","","WSC","MB","","2.00000000000000","No",""
"135","05OC022","Riviere aux Marais near Christie","49.07444444","-97.30527778","2024-11-01 10:05:00","0.03","329.83","","","","","","334.81","","333.81","","No Current Data","https://wateroffice.ec.gc.ca/report/real_time_e.html?stn=05OC022","2024-11-01 10:05:00","100.53","","","","WSC","MB","","2.00000000000000","Yes",""
"136","05OC024","Kronsgart Drain near Sewell","49.28055556","-97.50444444","2025-02-13 12:05:00","0.15","7.06","","","","","1083","13.5","","12.5","","No Flooding","https://wateroffice.ec.gc.ca/report/real_time_e.html?stn=05OC024","2025-02-13 12:05:00","2.18","0.01","","","WSC","MB","","6.00000000000000","No","true"
"137","05OC026","Red River above Red River Floodway (Actual)","49.73939","-97.13008","2024-11-04 06:15:00","","731.48","","","","","1083","760","","","","No Current Data","https://wateroffice.ec.gc.ca/report/real_time_e.html?stn=05OC026","2024-11-04 06:15:00","222.96","","","","WSC","MB","","2.00000000000000","No",""
"138","05OC027","Lake Minnewasta near Morden","49.18333333","-98.13416667","2025-02-11 09:00:00","","1081.89","","","","","","1083","","1082.5","","No Current Data","","","","","","Mean 1081.20 ft","MTI","","","6.00000000000000","No",""
"139","05OC028","Red River at St. Adolphe","49.67953","-97.11969","2024-11-01 06:17:00","","731.81","","","","775.5","","757.5","","","","No Current Data","https://wateroffice.ec.gc.ca/report/real_time_e.html?stn=05OC028","2024-11-01 06:17:00","223.05","","","","WSC","MB","","6.00000000000000","No",""
"140","05OD001","Roseau River near Dominion City at PR 218","49.191111","-96.984444","2024-11-01 10:15:00","63.57","788.3","","","","","3991","800.7","","799.7","","No Current Data","https://wateroffice.ec.gc.ca/report/real_time_e.html?stn=05OD001","2024-11-01 10:15:00","240.28","1.8","","","WSC","MB","","6.00000000000000","No",""
"141","05OD004","Roseau River at Gardenton","49.089407","-96.68445515","2024-11-01 09:13:00","59.09","959.17","","","","","4838","967.5","","966.5","2019/2017","No Current Data","https://wateroffice.ec.gc.ca/report/real_time_e.html?stn=05OD004","2024-11-01 09:13:00","292.35","1.66","","","WSC","MB","","6.00000000000000","No",""
"142","05OD028","Main Drain near Dominion City","49.13333333","-97.14277778","2024-11-01 09:15:00","0.01","772.97","","","","","","787.6","","786","","No Current Data","https://wateroffice.ec.gc.ca/report/real_time_e.html?stn=05OD028","2024-11-01 09:15:00","235.6","","","","WSC","MB","","6.00000000000000","No",""
"143","05OD034","Vita Drain near Stuartburn","49.17666667","-96.76388889","2024-11-01 10:30:00","5.19","22.76","","","","","632","","","","","No Current Data","https://wateroffice.ec.gc.ca/report/real_time_e.html?stn=05OD034","2024-11-01 10:30:00","6.94","0.15","","","WSC","MB","","6.00000000000000","No",""
"202","05OD802","Roseau River above Dominion City Dam PR 200","49.14589980244705","-97.16675240937698","2023-05-16 06:00:00","","776.5","","","","","","778","","","","No Current Data","","","","","","","MTI","MB","","2.00000000000000","No",""
"144","05OE001","Rat River near Otterburne","49.46166667","-97.00916667","2024-11-01 09:10:00","26.73","759.73","","","","","632","767.3","","766.3","2015/2017","No Current Data","https://wateroffice.ec.gc.ca/report/real_time_e.html?stn=05OE001","2024-11-01 09:10:00","231.56","0.76","","","WSC","MB","","2.00000000000000","No",""
"145","05OE004","Rat River near  Sundown","49.20972222","-96.28694444","2024-11-01 10:10:00","15.82","1035.06","","","","","","1042.32","","1041.32","","No Current Data","https://wateroffice.ec.gc.ca/report/real_time_e.html?stn=05OE004","2024-11-01 10:10:00","315.49","0.45","","","WSC","MB","","6.00000000000000","No",""
"146","05OE006","Manning Canal near Ile Des Chenes","49.63527778","-96.90611111","2024-11-01 06:05:00","16.35","3.43","","","","","2100","16.2","","15.2","","No Current Data","https://wateroffice.ec.gc.ca/report/real_time_e.html?stn=05OE006","2024-11-01 06:05:00","1.04","0.46","","","WSC","MB","","6.00000000000000","No",""
"147","05OE007","Joubert Creek at St. Pierre-Jolys","49.44","-96.98888889","2024-11-01 09:25:00","8.93","774.73","","","","","","783.5","","782.5","","No Current Data","https://wateroffice.ec.gc.ca/report/real_time_e.html?stn=05OE007","2024-11-01 09:25:00","236.14","0.25","","","WSC","MB","","6.00000000000000","No",""
"148","05OE009","Tourond Creek near Tourond","49.53194444","-96.98472222","2024-11-01 09:15:00","0.67","781.84","","","","","650","790.6","","790.5","","No Current Data","https://wateroffice.ec.gc.ca/report/real_time_e.html?stn=05OE009","2024-11-01 09:15:00","238.31","0.02","","","WSC","MB","","6.00000000000000","No",""
"149","05OE010","Marsh River near Otterburne","49.50222222","-97.15583333","2024-11-01 09:05:00","4.52","759.69","","","","","","768.5","","767.5","","No Current Data","https://wateroffice.ec.gc.ca/report/real_time_e.html?stn=05OE010","2024-11-01 09:05:00","231.55","0.13","","","WSC","MB","","6.00000000000000","No",""
"150","05OE011","Seine River Diversion near Ile des Chenes","49.69472222","-96.9875","2024-11-01 05:35:00","5.51","762.62","","","","","5580","768.5","","767.5","","No Current Data","https://wateroffice.ec.gc.ca/report/real_time_e.html?stn=05OE011","2024-11-01 05:35:00","232.45","0.16","","","WSC","MB","","6.00000000000000","No",""
"151","05OE015","Joubert Creek near Pansy","49.32527778","-96.76361111","2024-11-01 10:15:00","0.4","16.95","","","","","794.6","23.2","","22.2","","No Current Data","https://wateroffice.ec.gc.ca/report/real_time_e.html?stn=05OE015","2024-11-01 10:15:00","5.17","0.01","","","WSC","MB","","6.00000000000000","No",""
"209","05OE823","St. Malo Lake near St. Malo","49.317778","-96.935556","2025-02-11 09:00:00","","840.1","","","","","","842","","841.3","","No Current Data","","","","","","","","","","2.00000000000000","No",""
"152","05OF003","Boyne River near Carman","49.51722222","-97.94444444","2025-02-13 12:00:00","13.74","827.48","","","","","","835.1","","834.1","","No Flooding","https://wateroffice.ec.gc.ca/report/real_time_e.html?stn=05OF003","2025-02-13 12:00:00","252.22","0.39","","","WSC","MB","","6.00000000000000","No","true"
"153","05OF014","Shannon Creek near Morris","49.35472222","-97.42222222","2025-02-13 12:11:00","2.28","765.77","","","","784.1","","771","","770.3","","No Flooding","https://wateroffice.ec.gc.ca/report/real_time_e.html?stn=05OF014","2025-02-13 12:11:00","233.41","0.06","","","WSC","MB","","2.00000000000000","No","true"
"154","05OF020","Morris River near Rosenort","49.49","-97.48166667","2025-02-13 11:20:00","33.96","763.93","","","","","","772.6","","771.6","","No Flooding","https://wateroffice.ec.gc.ca/report/real_time_e.html?stn=05OF020","2025-02-13 11:20:00","232.84","0.96","","","WSC","MB","","2.00000000000000","No","true"
"155","05OF024","Little Morris River near Rosenort","49.45722222","-97.47666667","2025-02-13 11:20:00","","766.4","","","","","","774.28","","773.28","","No Flooding","https://wateroffice.ec.gc.ca/report/real_time_e.html?stn=05OF024","2025-02-13 11:20:00","233.6","","","","WSC","MB","","3.00000000000000","No","true"
"156","05OG001","La Salle River near Sanford","49.68","-97.43194444","2025-02-07 01:05:00","0.08","757.48","","","","","","764.1","","763.1","","No Current Data","https://wateroffice.ec.gc.ca/report/real_time_e.html?stn=05OG001","2025-02-07 01:05:00","230.88","","","","WSC","MB","","2.00000000000000","No",""
"157","05OH007","Seine River near Ste. Anne","49.64361111","-96.60888889","2024-11-01 00:55:00","49.09","829.39","","","","","2000","","","","","No Current Data","https://wateroffice.ec.gc.ca/report/real_time_e.html?stn=05OH007","2024-11-01 00:55:00","252.8","1.39","","","WSC","MB","","6.00000000000000","No",""
"158","05OH009","Seine River South of Prairie Grove","49.77222222","-96.95777778","2024-11-01 00:55:00","15.54","3.39","","","","","1059","","","","","No Current Data","https://wateroffice.ec.gc.ca/report/real_time_e.html?stn=05OH009","2024-11-01 00:55:00","1.03","0.44","","","WSC","MB","","6.00000000000000","No",""
"159","05OJ005","Red River at Selkirk - Dock","50.14126","-96.869075","2025-02-13 11:33:00","1534.2","713.23","","","","","","727.5","","726.5","","No Flooding","https://wateroffice.ec.gc.ca/report/real_time_e.html?stn=05OJ005","2025-02-13 11:33:00","217.39","","","Ice Jam","WSC","MB","","6.00000000000000","No","true"
"160","05OJ008","Netley Creek near Petersfield","50.32654722","-97.04425556","2024-11-04 06:15:00","1.68","743.44","","","","","1059","748.2","","747.2","","No Current Data","https://wateroffice.ec.gc.ca/report/real_time_e.html?stn=05OJ008","2024-11-04 06:15:00","226.6","0.05","","Gauge insatbility","WSC","MB","","6.00000000000000","No",""
"161","05OJ015","Red River at James Avenue Pumping Station","49.89872467","-97.13175159","2025-02-13 11:57:00","","0.67","","","","26.5","","18","","","","No Flooding","https://wateroffice.ec.gc.ca/report/real_time_e.html?stn=05OJ015","2025-02-13 11:57:00","221.97","","-221.768000000000","727.586 ft (datum)-gauge issue","WSC","MB","","6.00000000000000","No","true"
"162","05OJ016","Devils Creek near Libau","50.195","-96.71361111","2024-11-01 00:55:00","1.24","6.95","","","","","1582","13.25","","12.25","","No Current Data","https://wateroffice.ec.gc.ca/report/real_time_e.html?stn=05OJ016","2024-11-01 00:55:00","2.12","0.04","","","WSC","MB","","6.00000000000000","No",""
"163","05OJ019","Cooks Creek below Cooks Creek Diversiosn","49.9","-96.74027778","2022-11-01 15:10:00","43.99","4.11","","","","","470","","","","","No Current Data","https://wateroffice.ec.gc.ca/report/real_time_e.html?stn=05OJ019","2022-11-01 15:10:00","1.25","1.24","","","WSC","MB","","6.00000000000000","No",""
"164","05OJ021","Red River Upstream of Dam at Lockport","50.083889","-96.937222","2024-11-04 07:00:00","","722.1","","","","","","735","","734","","No Current Data","https://wateroffice.ec.gc.ca/report/real_time_e.html?stn=05OJ021","2024-11-04 07:00:00","220.1","","","","WSC","MB","","6.00000000000000","No",""
"165","05OJ022","Red River at Breezy Point","50.283","-96.85856","2024-11-04 06:05:00","","712.51","","","","","","718","","717","","No Current Data","https://wateroffice.ec.gc.ca/report/real_time_e.html?stn=05OJ022","2024-11-04 06:05:00","217.17","","","Ice Impact","WSC","MB","","6.00000000000000","No",""
"166","05PD801","Falcon Lake near Falcon Lake","49.70508","-95.24666","2025-02-11 09:00:00","","1065.3","","","","","","1065.83","","1067","","No Flooding","","","","","","Normal: 1065.5-1066.25 ft","MI","","","6.00000000000000","Yes",""
"167","05PF062","Winnipeg River at Lac du Bonnet","50.25805556","-96.05638889","2025-02-13 11:35:00","","836.22","","","","","","838","","837","","No Flooding","https://wateroffice.ec.gc.ca/report/real_time_e.html?stn=05PF062","2025-02-13 11:35:00","254.89","","","","WSC","MB","","6.00000000000000","No","true"
"168","05PF070","Nutimik Lake at Nutimik Lake","50.14416667","-95.68777778","2025-02-13 11:35:00","","901.04","","","","","","907.6","","906.6","","No Flooding","https://wateroffice.ec.gc.ca/report/real_time_e.html?stn=05PF070","2025-02-13 11:35:00","274.64","","","Normal: 900 - 902 ft","WSC","MB","","6.00000000000000","No","true"
"169","05PF650","Dorothy Lake below the Barrier Rapids","50.18277778","-95.71555556","2025-02-11 09:00:00","","900.61","","","","","","905.1","","904.1","","No Flooding","","","","","","","","","","6.00000000000000","Yes",""
"170","05PF801","Margaret/Eleanor Lake","50.14416667","-95.81777778","2025-02-11 09:00:00","","899.9","","","","","","902.5","","901.5","","No Flooding","","","","","","","","","","6.00000000000000","Yes",""
"171","05PG001","Whiteshell River at Outlet of Jessica Lk.","50.03472222","-95.50666667","2025-02-13 12:05:00","36.56","1008.26","","","","","","1011.5","","1010.5","","No Flooding","https://wateroffice.ec.gc.ca/report/real_time_e.html?stn=05PG001","2025-02-13 12:05:00","307.32","1.02","","","WSC","MB","","6.00000000000000","No","true"
"172","05PG803","West Hawk Lake at Dam","49.74476676","-95.20946596","2025-02-11 09:00:00","","1090.07","","","","","","1092.8","","1092.3","","No Flooding","","","","","","Normal: 1090.75-1092.0 ft","MI","MB","","6.00000000000000","Yes",""
"173","05PG806","Caddy Lake at Caddy Lake","49.80555556","-95.21444445","2025-02-11 09:00:00","","1043.95","","","","","","1047","","1046.5","","No Flooding","","","","","","Normal: 1044.5-1046.0 ft","MI","","","6.00000000000000","Yes",""
"174","05PG809","Jessica Lake above Jessica Lake Dam","50.03416667","-95.50666667","2024-05-07 11:25:00","","1017.87","","","","","","1019","","1018","","No Current Data","","2024-05-07 11:25:00","310.25","","","","","","","6.00000000000000","No",""
"175","05PG810","Betula Lake at Betula Lake Resort","50.07416667","-95.59055556","2024-04-22 08:00:00","","988.13","","","","","","","","","Gauge inaccessbile","No Current Data","","2024-04-22 08:00:00","301.18","","","","","","","6.00000000000000","No",""
"176","05PG811","White Lake at White Lake Campground","50.03416667","-95.515","2024-04-22 11:50:00","","1003.7","","","","","","1004","","1003","","No Current Data","","2024-04-22 11:50:00","305.93","","","","","","","6.00000000000000","No",""
"177","05PH003","Whitemouth River near Whitemouth","49.93881491","-95.95683464","2025-02-13 11:35:00","28.9","879.32","","","","","4873","888.5","","887.5","","No Flooding","https://wateroffice.ec.gc.ca/report/real_time_e.html?stn=05PH003","2025-02-13 11:35:00","268.01","0.79","","","WSC","MB","","6.00000000000000","No","true"
"178","05PH007","Birch River near Prawda","49.67972222","-95.78916667","2024-11-01 00:55:00","3.39","320.68","","","","","","326.42","","325.42","","No Current Data","https://wateroffice.ec.gc.ca/report/real_time_e.html?stn=05PH007","2024-11-01 00:55:00","97.74","0.1","","","WSC","MB","","6.00000000000000","No",""
"179","05RD006","Family Lake at Grand Rapids","52.03583333","-95.46027778","2025-02-13 11:35:00","","997.8","","","","","4873","1002.05","","1001.05","","No Flooding","https://wateroffice.ec.gc.ca/report/real_time_e.html?stn=05RD006","2025-02-13 11:35:00","304.13","","","","WSC","MB","","6.00000000000000","No","true"
"180","05SA002","Brokenhead River near Beausejour","50.09","-96.42805556","2024-11-01 00:55:00","140.67","751.26","","","","","","759","","758","","No Current Data","https://wateroffice.ec.gc.ca/report/real_time_e.html?stn=05SA002","2024-11-01 00:55:00","228.98","3.97","","","WSC","MB","","6.00000000000000","No",""
"181","05SA003","Lake Winnipeg near Victoria Beach","50.695","-96.56194444","2025-02-13 12:15:00","","712.77","","","","722","","720","","758","","No Flooding","https://wateroffice.ec.gc.ca/report/real_time_e.html?stn=05SA003","2025-02-13 12:15:00","217.25","","","Normal: 711 - 715 ft","WSC","MB","","6.00000000000000","No","true"
"182","05SB006","Lake Winnipeg at Gimli","50.63","-96.983","2025-02-13 11:20:00","","712.78","","","","722","","719","","","","No Flooding","https://wateroffice.ec.gc.ca/report/real_time_e.html?stn=05SB006","2025-02-13 11:20:00","217.26","","","Normal: 711 - 715 ft","WSC","MB","","6.00000000000000","No","true"
"183","05SC002","Icelandic River near Riverton","50.96472222","-97.03722222","2024-11-04 07:00:00","13.05","718.63","","","","","","724.5","","723.5","","No Current Data","https://wateroffice.ec.gc.ca/report/real_time_e.html?stn=05SC002","2024-11-04 07:00:00","219.04","0.38","","","WSC","MB","","6.00000000000000","No",""
"184","05SD001","Lake Winnipeg at Pine Dock","51.63944444","-96.80305556","2025-02-13 11:20:00","","712.67","","","","","","720","","719","","No Flooding","https://wateroffice.ec.gc.ca/report/real_time_e.html?stn=05SD001","2025-02-13 11:20:00","217.23","","","Normal: 711 -715 ft","WSC","MB","","6.00000000000000","No","true"
"185","05SD004","East Fisher River near Hodgson","51.215","-97.53361111","2024-11-04 07:25:00","15.01","738.57","","","","","1800","747.2","","746.2","","No Current Data","https://wateroffice.ec.gc.ca/report/real_time_e.html?stn=05SD004","2024-11-04 07:25:00","225.13","0.46","","","WSC","MB","","6.00000000000000","No",""
"186","05SD005","Fisher River near Fisherton","51.18583333","-97.70138889","2024-11-04 07:25:00","5.64","19.53","","","","","","25","","24","","No Current Data","https://wateroffice.ec.gc.ca/report/real_time_e.html?stn=05SD005","2024-11-04 07:25:00","5.95","0.16","","","WSC","MB","","6.00000000000000","No",""
"187","05SD006","Fisher River North of Dallas","51.41027778","-97.47027778","2024-11-04 07:10:00","27.12","721.52","","","","","2055","727.8","","726.8","","No Current Data","https://wateroffice.ec.gc.ca/report/real_time_e.html?stn=05SD006","2024-11-04 07:10:00","219.92","0.77","","","WSC","MB","","6.00000000000000","No",""
"188","05SG001","Lake Winnipeg at Mission Point","53.19111111","-99.21194444","2025-02-13 12:15:00","","712.63","","","","","2055","720","","719","","No Flooding","https://wateroffice.ec.gc.ca/report/real_time_e.html?stn=05SG001","2025-02-13 12:15:00","217.21","","","Normal: 711 - 715 ft","WSC","MB","","6.00000000000000","No","true"
"189","06EA002","Churchill River at Sandy Bay","55.52472222","-102.3158333","2025-02-13 11:15:00","15395.12","10.27","","","","","53700","26.5","","25.5","","No Current Data","https://wateroffice.ec.gc.ca/report/real_time_e.html?stn=06EA002","2025-02-13 11:15:00","3.13","436","","","WSC","SK","","6.00000000000000","Yes","true"
"190","06EA012","Pukatawagan Lake at Pukatawagan","55.74833333","-101.3197222","2025-02-13 11:25:00","","895.3","","","","","","905","","904","","No Flooding","https://wateroffice.ec.gc.ca/report/real_time_e.html?stn=06EA012","2025-02-13 11:25:00","272.89","","","","WSC","MB","","6.00000000000000","No","true"
"191","06EB002","Granville Lake at Granville Lake","56.23277778","-100.5716667","2025-02-13 11:35:00","","850.16","","","","","","865.5","","864.5","","No Flooding","https://wateroffice.ec.gc.ca/report/real_time_e.html?stn=06EB002","2025-02-13 11:35:00","259.13","","","","WSC","MB","","6.00000000000000","No","true"
"192","06EB004","Churchill River above Leaf Rapids","56.46805556","-100.0358333","2025-02-13 11:30:00","14739.3","847.78","","","","","","862.5","","861.5","","No Flooding","https://wateroffice.ec.gc.ca/report/real_time_e.html?stn=06EB004","2025-02-13 11:30:00","258.41","419","","","WSC","MB","","6.00000000000000","No","true"
"207","453MTI","Red River PR 200 & Richardson Road","49.731507","-97.1064","2023-05-16 06:00:00","","752.9","","","","","","","","","","No Current Data","","","","","0","","","","","6.00000000000000","No",""
"193","Assumed-MH","Lake Winnipeg (WEL)","50.77200071","-96.76499986","2025-02-11 09:00:00","","712.54","","","","","","","","","","No Flooding","","","","","","Normal: 711-715ft-MH assumed location","MH","","","6.00000000000000","Yes",""
"195","DRTN8","Red River at Drayton","48.572222","-97.147222","","","","","","","","","40","","","","No Current Data","https://water.weather.gov/ahps2/hydrograph.php?wfo=fgf&gage=drtn8","","","","0","","","","","6.00000000000000","Yes",""
"196","EGFM5","Red River north of Grandforks ","47.926944","-97.028889","","","","","","","","","39","","","","No Current Data","https://water.weather.gov/ahps2/hydrograph.php?wfo=fgf&gage=egfm5","","","","0","","","","","6.00000000000000","Yes",""
"210","PBNN8","Red River of the North at Pembina","48.973611","-97.241389","","","","","","","","","","","","","No Current Data","https://water.weather.gov/ahps2/hydrograph.php?wfo=fgf&gage=pbnn8","","","","0","","","","","6.00000000000000","Yes",""
"197","ROSM5","Roseau at Roseau","48.846389","-95.760278","","","","","","","","","14","","","","No Current Data","https://water.weather.gov/ahps2/hydrograph.php?wfo=fgf&gage=rosm5","","","","0","","","","","6.00000000000000","Yes",""
"194","Sylvia-Lake","Sylvia Lake","50.143842","-95.879185","2025-02-11 09:00:00","","899.6","","","","","","903","","902.5","","No Flooding","","","","","","","MH","","","6.00000000000000","Yes",""
"199","WSTN8","Souris River near Westhope","48.996389","-100.958056","","","","","","","","","1413","","","","No Current Data","https://water.weather.gov/ahps2/hydrograph.php?wfo=bis&gage=wstn8","","","","0","","","","","6.00000000000000","Yes",""
"198","XXXXX","Pembina River at Neche","48.989722","-97.556667","","","","","","","","","20","","","","No Current Data","https://water.weather.gov/ahps2/hydrograph.php?wfo=fgf&gage=ncen8","","","","0","","","","","6.00000000000000","Yes",""
